[{"location_id": 1, "sensor_description": "Bourke Street Mall (North)", "sensor_name": "Bou292_T", "installation_date": "2009-03-24", "note": null, "location_type": "Outdoor", "status": "A", "direction_1": "East", "direction_2": "West", "latitude": -37.81349441, "longitude": 144.96515323, "location": {"lon": 144.96515323, "lat": -37.81349441}},{"location_id": 3, "sensor_description": "Melbourne Central", "sensor_name": "Swa295_T", "installation_date": "2009-03-25", "note": null, "location_type": "Outdoor", "status": "A", "direction_1": "North", "direction_2": "South", "latitude": -37.81101524, "longitude": 144.96429485, "location": {"lon": 144.96429485, "lat": -37.81101524}},{"location_id": 5, "sensor_description": "Princes Bridge", "sensor_name": "PriNW_T", "installation_date": "2009-03-26", "note": "Replace with: 00:6e:02:01:9e:54", "location_type": "Outdoor", "status": "A", "direction_1": "North", "direction_2": "South", "latitude": -37.81874249, "longitude": 144.96787656, "location": {"lon": 144.96787656, "lat": -37.81874249}},{"location_id": 7, "sensor_description": "Birrarung Marr", "sensor_name": "FedPed_T", "installation_date": "2014-12-17", "note": null, "location_type": "Outdoor", "status": "A", "direction_1": "East", "direction_2": "West", "latitude": -37.81862929, "longitude": 144.97169395, "location": {"lon": 144.97169395, "lat": -37.81862929}},{"location_id": 9, "sensor_description": "Southern Cross Station", "sensor_name": "Col700_T", "installation_date": "2009-03-23", "note": null, "location_type": "Outdoor", "status": "A", "direction_1": "East", "direction_2": "West", "latitude": -37.81982992, "longitude": 144.95102555, "location": {"lon": 144.95102555, "lat": -37.81982992}},{"location_id": 12, "sensor_description": "New Quay", "sensor_name": "NewQ_T", "installation_date": "2009-01-21", "note": null, "location_type": "Outdoor", "status": "A", "direction_1": "East", "direction_2": "West", "latitude": -37.81457988, "longitude": 144.94292398, "location": {"lon": 144.94292398, "lat": -37.81457988}},{"location_id": 17, "sensor_description": "Collins Place (South)", "sensor_name": "Col15_T", "installation_date": "2009-03-30", "note": "Device is upgraded in 26/02/2020", "location_type": "Outdoor", "status": "A", "direction_1": "East", "direction_2": "West", "latitude": -37.81362543, "longitude": 144.97323591, "location": {"lon": 144.97323591, "lat": -37.81362543}},{"location_id": 18, "sensor_description": "Collins Place (North)", "sensor_name": "Col12_T", "installation_date": "2009-03-30", "note": null, "location_type": "Outdoor", "status": "A", "direction_1": "East", "direction_2": "West", "latitude": -37.81344862, "longitude": 144.97305353, "location": {"lon": 144.97305353, "lat": -37.81344862}},{"location_id": 21, "sensor_description": "Bourke St-Russell St (West)", "sensor_name": "Rus180_T", "installation_date": "2013-09-02", "note": null, "location_type": "Outdoor", "status": "A", "direction_1": "North", "direction_2": "South", "latitude": -37.81244703, "longitude": 144.96778757, "location": {"lon": 144.96778757, "lat": -37.81244703}},{"location_id": 23, "sensor_description": "Spencer St-Collins St (South)", "sensor_name": "Col623_T", "installation_date": "2013-09-02", "note": "Pushbox Upgrade, 25/07/2023", "location_type": "Outdoor", "status": "A", "direction_1": "East", "direction_2": "West", "latitude": -37.81909256, "longitude": 144.95452748, "location": {"lon": 144.95452748, "lat": -37.81909256}},{"location_id": 28, "sensor_description": "The Arts Centre", "sensor_name": "VAC_T", "installation_date": "2013-08-23", "note": null, "location_type": "Outdoor", "status": "A", "direction_1": "North", "direction_2": "South", "latitude": -37.82129925, "longitude": 144.96879309, "location": {"lon": 144.96879309, "lat": -37.82129925}},{"location_id": 30, "sensor_description": "Lonsdale St (South)", "sensor_name": "Lon189_T", "installation_date": "2013-10-14", "note": "Pushbox Upgrade, 20/07/2023", "location_type": "Outdoor", "status": "A", "direction_1": "East", "direction_2": "West", "latitude": -37.8112185, "longitude": 144.96656806, "location": {"lon": 144.96656806, "lat": -37.8112185}},{"location_id": 31, "sensor_description": "Lygon St (West)", "sensor_name": "Lyg161_T", "installation_date": "2013-10-10", "note": "Pushbox Upgrade, 25/07/2023", "location_type": "Outdoor", "status": "A", "direction_1": "North", "direction_2": "South", "latitude": -37.80169681, "longitude": 144.96658911, "location": {"lon": 144.96658911, "lat": -37.80169681}},{"location_id": 40, "sensor_description": "Lonsdale St-Spring St (West)", "sensor_name": "Spr201_T", "installation_date": "2015-01-19", "note": "Pushbox Upgrade, 03/08/2023", "location_type": "Outdoor", "status": "A", "direction_1": "North", "direction_2": "South", "latitude": -37.80999341, "longitude": 144.97227587, "location": {"lon": 144.97227587, "lat": -37.80999341}},{"location_id": 42, "sensor_description": "Grattan St-Swanston St (West)", "sensor_name": "UM1_T", "installation_date": "2015-04-15", "note": null, "location_type": "Outdoor", "status": "A", "direction_1": "North", "direction_2": "South", "latitude": -37.80008566, "longitude": 144.96386412, "location": {"lon": 144.96386412, "lat": -37.80008566}},{"location_id": 44, "sensor_description": "Tin Alley-Swanston St (West)", "sensor_name": "UM3_T", "installation_date": "2015-04-15", "note": "Pushbox Upgrade, 30/06/2023", "location_type": "Outdoor", "status": "A", "direction_1": "In", "direction_2": "Out", "latitude": -37.79690473, "longitude": 144.96440378, "location": {"lon": 144.96440378, "lat": -37.79690473}},{"location_id": 44, "sensor_description": "Tin Alley-Swanston St (West)", "sensor_name": "UM3_T", "installation_date": "2015-04-15", "note": "Pushbox Upgrade, 30/06/2023", "location_type": "Outdoor", "status": "A", "direction_1": "North", "direction_2": "South", "latitude": -37.79690473, "longitude": 144.96440378, "location": {"lon": 144.96440378, "lat": -37.79690473}},{"location_id": 48, "sensor_description": "QVM-Queen St (East)", "sensor_name": "QVMQ_T", "installation_date": "2017-10-02", "note": "Pushbox Upgrade, 03/07/2023", "location_type": "Outdoor", "status": "A", "direction_1": "East", "direction_2": "West", "latitude": -37.80631581, "longitude": 144.95866697, "location": {"lon": 144.95866697, "lat": -37.80631581}},{"location_id": 55, "sensor_description": "Elizabeth St-La Trobe St (East)", "sensor_name": "Eli380_T", "installation_date": "2018-07-19", "note": null, "location_type": "Outdoor", "status": "A", "direction_1": "North", "direction_2": "South", "latitude": -37.80988941, "longitude": 144.96134331, "location": {"lon": 144.96134331, "lat": -37.80988941}},{"location_id": 61, "sensor_description": "RMIT Building 14", "sensor_name": "RMIT14_T", "installation_date": "2019-06-28", "note": null, "location_type": "Outdoor", "status": "A", "direction_1": "North", "direction_2": "South", "latitude": -37.80767455, "longitude": 144.96309114, "location": {"lon": 144.96309114, "lat": -37.80767455}},{"location_id": 62, "sensor_description": "La Trobe St (North)", "sensor_name": "Lat224_T", "installation_date": "2019-09-25", "note": null, "location_type": "Outdoor", "status": "A", "direction_1": "East", "direction_2": "West", "latitude": -37.80996494, "longitude": 144.96216521, "location": {"lon": 144.96216521, "lat": -37.80996494}},{"location_id": 63, "sensor_description": "231 Bourke St", "sensor_name": "Bou231_T", "installation_date": "2020-01-07", "note": null, "location_type": "Outdoor", "status": "A", "direction_1": "East", "direction_2": "West", "latitude": -37.81333081, "longitude": 144.96675571, "location": {"lon": 144.96675571, "lat": -37.81333081}},{"location_id": 69, "sensor_description": "Flinders Ln -Degraves St (Crossing)", "sensor_name": "FLDegC_T", "installation_date": "2020-06-03", "note": null, "location_type": "Outdoor", "status": "A", "direction_1": "North", "direction_2": "South", "latitude": -37.81687226, "longitude": 144.96559144, "location": {"lon": 144.96559144, "lat": -37.81687226}},{"location_id": 71, "sensor_description": "Westwood Place", "sensor_name": "WestWP_T", "installation_date": "2020-10-16", "note": null, "location_type": "Outdoor", "status": "A", "direction_1": "North", "direction_2": "South", "latitude": -37.81235775, "longitude": 144.97136962, "location": {"lon": 144.97136962, "lat": -37.81235775}},{"location_id": 78, "sensor_description": "Harbour Esplanade (West) - Bike Path", "sensor_name": "HarEsB_T", "installation_date": "2021-03-30", "note": null, "location_type": "Outdoor", "status": "A", "direction_1": "North", "direction_2": "South", "latitude": -37.81471642, "longitude": 144.9446508, "location": {"lon": 144.9446508, "lat": -37.81471642}},{"location_id": 80, "sensor_description": "Boyd Commuinty - Rear door", "sensor_name": "BoCoR_T", "installation_date": "2021-03-30", "note": null, "location_type": "Indoor", "status": "A", "direction_1": null, "direction_2": null, "latitude": -37.8254567, "longitude": 144.96131206, "location": {"lon": 144.96131206, "lat": -37.8254567}},{"location_id": 81, "sensor_description": "Boyd Commuinty - Front door", "sensor_name": "BoCoF_T", "installation_date": "2021-03-30", "note": null, "location_type": "Indoor", "status": "A", "direction_1": null, "direction_2": null, "latitude": -37.82579138, "longitude": 144.96084343, "location": {"lon": 144.96084343, "lat": -37.82579138}},{"location_id": 84, "sensor_description": "Elizabeth St - Flinders St (East) - New footpath", "sensor_name": "ElFi_T", "installation_date": "2021-12-03", "note": null, "location_type": "Outdoor", "status": "A", "direction_1": "North", "direction_2": "South", "latitude": -37.81798049, "longitude": 144.96503383, "location": {"lon": 144.96503383, "lat": -37.81798049}},{"location_id": 85, "sensor_description": "Macaulay Rd (North)", "sensor_name": "488Mac_T", "installation_date": "2021-12-21", "note": null, "location_type": "Outdoor", "status": "A", "direction_1": "East", "direction_2": "West", "latitude": -37.79432415, "longitude": 144.92973378, "location": {"lon": 144.92973378, "lat": -37.79432415}},{"location_id": 88, "sensor_description": "Micro-Labs", "sensor_name": "MicLab_T", "installation_date": "2022-07-28", "note": null, "location_type": "Indoor", "status": "A", "direction_1": null, "direction_2": null, "latitude": -37.81330972, "longitude": 144.96687704, "location": {"lon": 144.96687704, "lat": -37.81330972}},{"location_id": 90, "sensor_description": "Boyd Community Hub- Library", "sensor_name": "BoCoL_T", "installation_date": "2015-08-11", "note": null, "location_type": "Indoor", "status": "A", "direction_1": null, "direction_2": null, "latitude": -37.82556207, "longitude": 144.96115421, "location": {"lon": 144.96115421, "lat": -37.82556207}},{"location_id": 92, "sensor_description": "Library at The Dock-South side", "sensor_name": "DocLib2_T", "installation_date": "2015-06-05", "note": null, "location_type": "Indoor", "status": "A", "direction_1": null, "direction_2": null, "latitude": -37.82016286, "longitude": 144.94039584, "location": {"lon": 144.94039584, "lat": -37.82016286}},{"location_id": 94, "sensor_description": "Fitzroy Garden- The Conservatory", "sensor_name": "FitConVis_T", "installation_date": "2015-03-02", "note": null, "location_type": "Indoor", "status": "A", "direction_1": null, "direction_2": null, "latitude": -37.81424531, "longitude": 144.97851861, "location": {"lon": 144.97851861, "lat": -37.81424531}},{"location_id": 103, "sensor_description": "Kensington Town Hall", "sensor_name": "KenTown_T", "installation_date": "2018-02-02", "note": "Device Replace", "location_type": "Indoor", "status": "A", "direction_1": null, "direction_2": null, "latitude": -37.7893527, "longitude": 144.9286055, "location": {"lon": 144.9286055, "lat": -37.7893527}},{"location_id": 104, "sensor_description": "Kathleen Syme Library Main", "sensor_name": "KatLib1_T", "installation_date": "2018-02-02", "note": null, "location_type": "Indoor", "status": "A", "direction_1": null, "direction_2": null, "latitude": -37.79863553, "longitude": 144.96548206, "location": {"lon": 144.96548206, "lat": -37.79863553}},{"location_id": 108, "sensor_description": "William St - Little Lonsdale St (West)", "sensor_name": "261Will_T", "installation_date": "2022-10-08", "note": null, "location_type": "Outdoor", "status": "A", "direction_1": "North", "direction_2": "South", "latitude": -37.81295822, "longitude": 144.95678789, "location": {"lon": 144.95678789, "lat": -37.81295822}},{"location_id": 112, "sensor_description": "Argyle Sq Park", "sensor_name": "ArgSqBlix_T", "installation_date": "2021-10-07", "note": null, "location_type": "Outdoor Blix", "status": "A", "direction_1": null, "direction_2": null, "latitude": -37.802553, "longitude": 144.96564218, "location": {"lon": 144.96564218, "lat": -37.802553}},{"location_id": 113, "sensor_description": "Micro-labs Blix", "sensor_name": "MicLBlix_T", "installation_date": "2022-07-27", "note": null, "location_type": "Outdoor Blix", "status": "A", "direction_1": null, "direction_2": null, "latitude": -37.81334479, "longitude": 144.96689264, "location": {"lon": 144.96689264, "lat": -37.81334479}},{"location_id": 114, "sensor_description": "Shrine of rememberance-North-West", "sensor_name": "ShrinNW_T", "installation_date": "2022-10-14", "note": null, "location_type": "Outdoor Blix", "status": "A", "direction_1": null, "direction_2": null, "latitude": -37.83014349, "longitude": 144.97270007, "location": {"lon": 144.97270007, "lat": -37.83014349}},{"location_id": 115, "sensor_description": "Shrine of rememberance-North-East", "sensor_name": "ShrinNE_T", "installation_date": "2022-10-14", "note": null, "location_type": "Outdoor Blix", "status": "A", "direction_1": null, "direction_2": null, "latitude": -37.82985386, "longitude": 144.97370743, "location": {"lon": 144.97370743, "lat": -37.82985386}},{"location_id": 116, "sensor_description": "Fitzroy Garden Visitor Centre Cafe Verandah", "sensor_name": "FitCafVis_T", "installation_date": "2015-03-02", "note": "Pushbox Upgrade, 30/06/2023", "location_type": "Indoor", "status": "A", "direction_1": null, "direction_2": null, "latitude": -37.81493732, "longitude": 144.97932442, "location": {"lon": 144.97932442, "lat": -37.81493732}},{"location_id": 117, "sensor_description": "114 Flinders Street Car Park Footpath", "sensor_name": "Fli114F_T", "installation_date": "2022-12-06", "note": null, "location_type": "Outdoor", "status": "A", "direction_1": "East", "direction_2": "West", "latitude": -37.81629332, "longitude": 144.97090877, "location": {"lon": 144.97090877, "lat": -37.81629332}},{"location_id": 118, "sensor_description": "114 Flinders Street Car Park Crossing", "sensor_name": "Fli114C_T", "installation_date": "2022-12-06", "note": null, "location_type": "Outdoor", "status": "A", "direction_1": "North", "direction_2": "South", "latitude": -37.81632783, "longitude": 144.97090512, "location": {"lon": 144.97090512, "lat": -37.81632783}},{"location_id": 123, "sensor_description": "Birrarung Marr East - Batman Ave Bridge Entry", "sensor_name": "BirBridge_T", "installation_date": "2023-06-02", "note": "<Null>", "location_type": "Outdoor", "status": "A", "direction_1": "East", "direction_2": "West", "latitude": -37.81753741, "longitude": 144.97329734, "location": {"lon": 144.97329734, "lat": -37.81753741}},{"location_id": 129, "sensor_description": "Shrine of rememberance-South-East", "sensor_name": "ShrineSE_T", "installation_date": "2023-09-20", "note": null, "location_type": "Outdoor Blix", "status": "A", "direction_1": null, "direction_2": null, "latitude": -37.83093739, "longitude": 144.97420258, "location": {"lon": 144.97420258, "lat": -37.83093739}},{"location_id": 131, "sensor_description": "I-Hub Corner of King Street and Flinders Street (2-6 King)", "sensor_name": "King2_T", "installation_date": "2023-09-25", "note": null, "location_type": "Outdoor", "status": "A", "direction_1": "North", "direction_2": "South", "latitude": -37.82009057, "longitude": 144.95758725, "location": {"lon": 144.95758725, "lat": -37.82009057}},{"location_id": 137, "sensor_description": "COM Pole 2353 - Towards the city, NAB Building", "sensor_name": "BouHbr2353_T", "installation_date": "2023-11-03", "note": null, "location_type": "Outdoor", "status": "A", "direction_1": "East", "direction_2": "West", "latitude": -37.81894815, "longitude": 144.94612292, "location": {"lon": 144.94612292, "lat": -37.81894815}},{"location_id": 139, "sensor_description": "COM Pole 1647 - Sandridge Bridge Signal Box", "sensor_name": "Signal1647_T", "installation_date": "2023-11-20", "note": null, "location_type": "Outdoor", "status": "A", "direction_1": "East", "direction_2": "West", "latitude": -37.81959923, "longitude": 144.9632832, "location": {"lon": 144.9632832, "lat": -37.81959923}},{"location_id": 142, "sensor_description": "COM Pole 1584 - Hammer Hall Entrance", "sensor_name": "Hammer1584_T", "installation_date": "2023-11-03", "note": null, "location_type": "Outdoor", "status": "A", "direction_1": "East", "direction_2": "West", "latitude": -37.81970749, "longitude": 144.96795734, "location": {"lon": 144.96795734, "lat": -37.81970749}},{"location_id": 143, "sensor_description": "Mounted on Toilet - Spencer Street, Batman Park", "sensor_name": "Spencer_T", "installation_date": null, "note": null, "location_type": "Outdoor", "status": "A", "direction_1": "In", "direction_2": "Out", "latitude": -37.821728, "longitude": 144.95557015, "location": {"lon": 144.95557015, "lat": -37.821728}},{"location_id": 144, "sensor_description": "narrm ngarrgu Library - Level 1 - Lift 1", "sensor_name": "narrLibL1L1_T", "installation_date": "2023-10-23", "note": null, "location_type": "Indoor", "status": "A", "direction_1": "In", "direction_2": "Out", "latitude": -37.80760657, "longitude": 144.95862847, "location": {"lon": 144.95862847, "lat": -37.80760657}},{"location_id": 147, "sensor_description": "narrm ngarrgu Library - Level 1 - Meeting Room Lift 1", "sensor_name": "narrLibMRL1_T", "installation_date": "2023-10-23", "note": null, "location_type": "Indoor", "status": "A", "direction_1": null, "direction_2": null, "latitude": -37.80769805, "longitude": 144.95832131, "location": {"lon": 144.95832131, "lat": -37.80769805}},{"location_id": 155, "sensor_description": "narrm ngarrgu Library - Level 3 Children's Library Door 2", "sensor_name": "narrLibL#C2_T", "installation_date": "2023-10-23", "note": null, "location_type": "Indoor", "status": "A", "direction_1": null, "direction_2": null, "latitude": -37.80783201, "longitude": 144.95845043, "location": {"lon": 144.95845043, "lat": -37.80783201}},{"location_id": 2, "sensor_description": "Bourke Street Mall (South)", "sensor_name": "Bou283_T", "installation_date": "2009-03-30", "note": null, "location_type": "Outdoor", "status": "A", "direction_1": "East", "direction_2": "West", "latitude": -37.81380668, "longitude": 144.96516718, "location": {"lon": 144.96516718, "lat": -37.81380668}},{"location_id": 4, "sensor_description": "Town Hall (West)", "sensor_name": "Swa123_T", "installation_date": "2009-03-23", "note": null, "location_type": "Outdoor", "status": "A", "direction_1": "North", "direction_2": "South", "latitude": -37.81487988, "longitude": 144.9660878, "location": {"lon": 144.9660878, "lat": -37.81487988}},{"location_id": 6, "sensor_description": "Flinders Street Station Underpass", "sensor_name": "FliS_T", "installation_date": "2009-03-25", "note": "Upgraded on 8/09/21", "location_type": "Outdoor", "status": "A", "direction_1": "North", "direction_2": "South", "latitude": -37.81911705, "longitude": 144.96558255, "location": {"lon": 144.96558255, "lat": -37.81911705}},{"location_id": 8, "sensor_description": "Webb Bridge", "sensor_name": "WebBN_T", "installation_date": "2009-03-24", "note": null, "location_type": "Outdoor", "status": "A", "direction_1": "North", "direction_2": "South", "latitude": -37.82293543, "longitude": 144.9471751, "location": {"lon": 144.9471751, "lat": -37.82293543}},{"location_id": 10, "sensor_description": "Victoria Point", "sensor_name": "BouHbr_T", "installation_date": "2009-04-23", "note": null, "location_type": "Outdoor", "status": "A", "direction_1": "East", "direction_2": "West", "latitude": -37.81876474, "longitude": 144.94710545, "location": {"lon": 144.94710545, "lat": -37.81876474}},{"location_id": 11, "sensor_description": "Waterfront City", "sensor_name": "WatCit_T", "installation_date": "2009-01-20", "note": null, "location_type": "Outdoor", "status": "A", "direction_1": "East", "direction_2": "West", "latitude": -37.81564989, "longitude": 144.93970694, "location": {"lon": 144.93970694, "lat": -37.81564989}},{"location_id": 14, "sensor_description": "Sandridge Bridge", "sensor_name": "SanBri_T", "installation_date": "2009-03-24", "note": "Sensor relocated to sensor ID 25 on 2/10/2019", "location_type": "Outdoor", "status": "A", "direction_1": "North", "direction_2": "South", "latitude": -37.82011242, "longitude": 144.96291897, "location": {"lon": 144.96291897, "lat": -37.82011242}},{"location_id": 19, "sensor_description": "Chinatown-Swanston St (North)", "sensor_name": "LtB210_T", "installation_date": "2013-09-02", "note": "Pushbox Upgrade, 20/07/2023", "location_type": "Outdoor", "status": "A", "direction_1": "East", "direction_2": "West", "latitude": -37.81237202, "longitude": 144.96550671, "location": {"lon": 144.96550671, "lat": -37.81237202}},{"location_id": 20, "sensor_description": "Chinatown-Lt Bourke St (South)", "sensor_name": "LtB170_T", "installation_date": "2013-09-06", "note": "Pushbox Upgrade, 20/07/2023", "location_type": "Outdoor", "status": "A", "direction_1": "East", "direction_2": "West", "latitude": -37.81172914, "longitude": 144.9682466, "location": {"lon": 144.9682466, "lat": -37.81172914}},{"location_id": 26, "sensor_description": "QV Market-Elizabeth St (West)", "sensor_name": "Eli483_T", "installation_date": "2013-09-28", "note": "Pushbox Upgrade, 03/07/2023", "location_type": "Outdoor", "status": "A", "direction_1": "North", "direction_2": "South", "latitude": -37.80764933, "longitude": 144.95994631, "location": {"lon": 144.95994631, "lat": -37.80764933}},{"location_id": 27, "sensor_description": "QV Market-Peel St", "sensor_name": "Vic_T", "installation_date": "2013-08-16", "note": null, "location_type": "Outdoor", "status": "A", "direction_1": "East", "direction_2": "West", "latitude": -37.80606888, "longitude": 144.95644692, "location": {"lon": 144.95644692, "lat": -37.80606888}},{"location_id": 29, "sensor_description": "St Kilda Rd-Alexandra Gardens", "sensor_name": "AG_T", "installation_date": "2013-10-11", "note": "sensor upgraded from laser to 3D on 19/12/2019", "location_type": "Outdoor", "status": "A", "direction_1": "North", "direction_2": "South", "latitude": -37.81965809, "longitude": 144.96863453, "location": {"lon": 144.96863453, "lat": -37.81965809}},{"location_id": 35, "sensor_description": "Southbank", "sensor_name": "SouthB_T", "installation_date": "2016-04-11", "note": "Device replaced with two new sensors on 15-4-21", "location_type": "Outdoor", "status": "A", "direction_1": "East", "direction_2": "West", "latitude": -37.82017828, "longitude": 144.96508877, "location": {"lon": 144.96508877, "lat": -37.82017828}},{"location_id": 39, "sensor_description": "Alfred Place", "sensor_name": "AlfPl_T", "installation_date": "2019-12-04", "note": "In 4/12/2019 sensor upgraded", "location_type": "Outdoor", "status": "A", "direction_1": "North", "direction_2": "South", "latitude": -37.81379749, "longitude": 144.96995745, "location": {"lon": 144.96995745, "lat": -37.81379749}},{"location_id": 43, "sensor_description": "Monash Rd-Swanston St (West)", "sensor_name": "UM2_T", "installation_date": "2015-04-15", "note": null, "location_type": "Outdoor", "status": "A", "direction_1": "North", "direction_2": "South", "latitude": -37.79844526, "longitude": 144.96411782, "location": {"lon": 144.96411782, "lat": -37.79844526}},{"location_id": 44, "sensor_description": "Tin Alley-Swanston St (West)", "sensor_name": "UM3_T", "installation_date": "2015-04-15", "note": "Pushbox Upgrade, 30/06/2023", "location_type": "Outdoor", "status": "A", "direction_1": "North", "direction_2": "InOut", "latitude": -37.79690473, "longitude": 144.96440378, "location": {"lon": 144.96440378, "lat": -37.79690473}},{"location_id": 47, "sensor_description": "Melbourne Central-Elizabeth St (East)", "sensor_name": "Eli250_T", "installation_date": "2017-08-24", "note": "Pushbox Upgrade, 25/07/2023", "location_type": "Outdoor", "status": "A", "direction_1": "North", "direction_2": "South", "latitude": -37.81160332, "longitude": 144.96220077, "location": {"lon": 144.96220077, "lat": -37.81160332}},{"location_id": 51, "sensor_description": "QVM-Franklin St (North)", "sensor_name": "Fra118_T", "installation_date": "2017-11-30", "note": "Pushbox Upgrade, 20/07/2023", "location_type": "Outdoor", "status": "A", "direction_1": "East", "direction_2": "West", "latitude": -37.80841815, "longitude": 144.95906316, "location": {"lon": 144.95906316, "lat": -37.80841815}},{"location_id": 53, "sensor_description": "Collins Street (North)", "sensor_name": "Col254_T", "installation_date": "2015-09-23", "note": null, "location_type": "Outdoor", "status": "A", "direction_1": "East", "direction_2": "West", "latitude": -37.81564191, "longitude": 144.965499, "location": {"lon": 144.965499, "lat": -37.81564191}},{"location_id": 54, "sensor_description": "Lincoln-Swanston (West)", "sensor_name": "Swa607_T", "installation_date": "2018-06-26", "note": null, "location_type": "Outdoor", "status": "A", "direction_1": "North", "direction_2": "South", "latitude": -37.804024, "longitude": 144.96308399, "location": {"lon": 144.96308399, "lat": -37.804024}},{"location_id": 58, "sensor_description": "Bourke St - Spencer St (North)", "sensor_name": "Bou688_T", "installation_date": "2018-09-27", "note": null, "location_type": "Outdoor", "status": "A", "direction_1": "East", "direction_2": "West", "latitude": -37.81686075, "longitude": 144.95358075, "location": {"lon": 144.95358075, "lat": -37.81686075}},{"location_id": 59, "sensor_description": "Building 80 RMIT", "sensor_name": "RMIT_T", "installation_date": "2019-02-13", "note": null, "location_type": "Outdoor", "status": "A", "direction_1": "North", "direction_2": "South", "latitude": -37.80825648, "longitude": 144.96304859, "location": {"lon": 144.96304859, "lat": -37.80825648}},{"location_id": 64, "sensor_description": "Royal Pde - Grattan St", "sensor_name": "Grat292_T", "installation_date": "2020-01-16", "note": null, "location_type": "Outdoor", "status": "A", "direction_1": "North", "direction_2": "South", "latitude": -37.79949545, "longitude": 144.95792282, "location": {"lon": 144.95792282, "lat": -37.79949545}},{"location_id": 72, "sensor_description": "Flinders St- ACMI", "sensor_name": "ACMI_T", "installation_date": "2020-11-30", "note": null, "location_type": "Outdoor", "status": "A", "direction_1": "East", "direction_2": "West", "latitude": -37.81726338, "longitude": 144.96872809, "location": {"lon": 144.96872809, "lat": -37.81726338}},{"location_id": 76, "sensor_description": "Macaulay Rd- Bellair St", "sensor_name": "KenMac_T", "installation_date": "2021-02-20", "note": null, "location_type": "Outdoor", "status": "A", "direction_1": "East", "direction_2": "West", "latitude": -37.79453803, "longitude": 144.93036194, "location": {"lon": 144.93036194, "lat": -37.79453803}},{"location_id": 79, "sensor_description": "Flinders St (South)", "sensor_name": "FliSS_T", "installation_date": "2021-09-10", "note": null, "location_type": "Outdoor", "status": "A", "direction_1": "East", "direction_2": "West", "latitude": -37.81794046, "longitude": 144.96616678, "location": {"lon": 144.96616678, "lat": -37.81794046}},{"location_id": 86, "sensor_description": "Queensberry St - Errol St (South)", "sensor_name": "574Qub_T", "installation_date": "2021-12-21", "note": null, "location_type": "Outdoor", "status": "A", "direction_1": "East", "direction_2": "West", "latitude": -37.80309992, "longitude": 144.94908064, "location": {"lon": 144.94908064, "lat": -37.80309992}},{"location_id": 87, "sensor_description": "Errol St (West)", "sensor_name": "Errol23_T", "installation_date": "2022-05-20", "note": null, "location_type": "Outdoor", "status": "A", "direction_1": "North", "direction_2": "South", "latitude": -37.80454949, "longitude": 144.94921863, "location": {"lon": 144.94921863, "lat": -37.80454949}},{"location_id": 89, "sensor_description": "City Library", "sensor_name": "CityLi_T", "installation_date": "2013-12-11", "note": null, "location_type": "Indoor", "status": "A", "direction_1": null, "direction_2": null, "latitude": -37.81685964, "longitude": 144.96586575, "location": {"lon": 144.96586575, "lat": -37.81685964}},{"location_id": 96, "sensor_description": "Fitzroy Garden Visitor Centre Internal", "sensor_name": "FitGarVisIInt_T", "installation_date": "2015-03-02", "note": "Pushbox Upgrade, 30/06/2023", "location_type": "Indoor", "status": "A", "direction_1": null, "direction_2": null, "latitude": -37.81499687, "longitude": 144.97925064, "location": {"lon": 144.97925064, "lat": -37.81499687}},{"location_id": 105, "sensor_description": "Kathleen Syme Library Lib", "sensor_name": "KatLib2_T", "installation_date": "2018-02-02", "note": null, "location_type": "Indoor", "status": "A", "direction_1": null, "direction_2": null, "latitude": -37.79861828, "longitude": 144.9652825, "location": {"lon": 144.9652825, "lat": -37.79861828}},{"location_id": 111, "sensor_description": "Harbour Esplanade", "sensor_name": "HarbBlix_T", "installation_date": "2021-03-25", "note": null, "location_type": "Outdoor Blix", "status": "A", "direction_1": null, "direction_2": null, "latitude": -37.81442577, "longitude": 144.94436558, "location": {"lon": 144.94436558, "lat": -37.81442577}},{"location_id": 121, "sensor_description": "Royal Park BBQ near the playground and public toilet facility - Gatehouse Street", "sensor_name": "RoyBlix_T", "installation_date": "2023-01-18", "note": "Royal Park BBQ near the playground and public toilet facility, cnr Flemington Road and Gatehouse Street", "location_type": "Outdoor Blix", "status": "A", "direction_1": null, "direction_2": null, "latitude": -37.79505209, "longitude": 144.95104583, "location": {"lon": 144.95104583, "lat": -37.79505209}},{"location_id": 122, "sensor_description": "Birrarung Marr", "sensor_name": "FedCycle_T", "installation_date": "2022-08-23", "note": null, "location_type": "Outdoor", "status": "A", "direction_1": "East", "direction_2": "West", "latitude": -37.81862929, "longitude": 144.97169395, "location": {"lon": 144.97169395, "lat": -37.81862929}},{"location_id": 124, "sensor_description": "Birrarung Marr East - Batman Ave Bridge Entry", "sensor_name": "BirBridge_T", "installation_date": "2023-06-02", "note": null, "location_type": "Outdoor", "status": "A", "direction_1": "North", "direction_2": "South", "latitude": -37.81757416, "longitude": 144.97329934, "location": {"lon": 144.97329934, "lat": -37.81757416}},{"location_id": 128, "sensor_description": "Shrine of rememberance-South-West", "sensor_name": "ShrineSW_T", "installation_date": "2023-09-20", "note": null, "location_type": "Outdoor Blix", "status": "A", "direction_1": null, "direction_2": null, "latitude": -37.83122892, "longitude": 144.97318692, "location": {"lon": 144.97318692, "lat": -37.83122892}},{"location_id": 130, "sensor_description": "I-Hub 892 Bourke Street", "sensor_name": "Bou892T", "installation_date": "2023-09-25", "note": null, "location_type": "Outdoor", "status": "A", "direction_1": "East", "direction_2": "West", "latitude": -37.8204637, "longitude": 144.94126826, "location": {"lon": 144.94126826, "lat": -37.8204637}},{"location_id": 133, "sensor_description": "I-Hub Southern Cross Station - Lonsdale Street Entrance - South", "sensor_name": "Spen229_T", "installation_date": "2023-09-25", "note": null, "location_type": "Outdoor", "status": "A", "direction_1": "North", "direction_2": "South", "latitude": -37.81531435, "longitude": 144.95227769, "location": {"lon": 144.95227769, "lat": -37.81531435}},{"location_id": 135, "sensor_description": "I-Hub Southern Cross Station - Bourke Street Entrance - South", "sensor_name": "Spen161_T", "installation_date": "2023-09-25", "note": null, "location_type": "Outdoor", "status": "A", "direction_1": "North", "direction_2": "South", "latitude": -37.8172861, "longitude": 144.95319102, "location": {"lon": 144.95319102, "lat": -37.8172861}},{"location_id": 136, "sensor_description": "COM Pole 1120 - Towards the City, Near Federation Square Bridge", "sensor_name": "BirFed1120_T", "installation_date": "2023-11-03", "note": null, "location_type": "Outdoor", "status": "A", "direction_1": "East", "direction_2": "West", "latitude": -37.8184141, "longitude": 144.97357915, "location": {"lon": 144.97357915, "lat": -37.8184141}},{"location_id": 141, "sensor_description": "Awning of Nationwide Parking 474 Flinders Street", "sensor_name": "474Fl_T", "installation_date": "2023-11-10", "note": null, "location_type": "Outdoor", "status": "A", "direction_1": "East", "direction_2": "West", "latitude": -37.81997273, "longitude": 144.95834911, "location": {"lon": 144.95834911, "lat": -37.81997273}},{"location_id": 145, "sensor_description": "narrm ngarrgu Library - Level 1 - Lift 2", "sensor_name": "narrLibL1L2_T", "installation_date": "2023-10-23", "note": null, "location_type": "Indoor", "status": "A", "direction_1": null, "direction_2": null, "latitude": -37.80763871, "longitude": 144.95850722, "location": {"lon": 144.95850722, "lat": -37.80763871}},{"location_id": 146, "sensor_description": "narrm ngarrgu Library - Level 1 - Lift 3", "sensor_name": "narrLibL1L3_T", "installation_date": "2023-10-23", "note": null, "location_type": "Indoor", "status": "A", "direction_1": null, "direction_2": null, "latitude": -37.80766922, "longitude": 144.95840594, "location": {"lon": 144.95840594, "lat": -37.80766922}},{"location_id": 148, "sensor_description": "narrm ngarrgu Library - Level 1 - Meeting Room Lift 2", "sensor_name": "narrLibMRL2_T", "installation_date": "2023-10-23", "note": null, "location_type": "Indoor", "status": "A", "direction_1": null, "direction_2": null, "latitude": -37.80772224, "longitude": 144.95823515, "location": {"lon": 144.95823515, "lat": -37.80772224}},{"location_id": 149, "sensor_description": "narrm ngarrgu Library - Level 1 Main Stairs A", "sensor_name": "narrLibL1MA_T", "installation_date": "2023-10-23", "note": null, "location_type": "Indoor", "status": "A", "direction_1": null, "direction_2": null, "latitude": -37.80781158, "longitude": 144.9582219, "location": {"lon": 144.9582219, "lat": -37.80781158}},{"location_id": 151, "sensor_description": "narrm ngarrgu Library - Level 2 - Collections Stairs A", "sensor_name": "narrLibL2CA_T", "installation_date": "2023-10-23", "note": null, "location_type": "Indoor", "status": "A", "direction_1": "In", "direction_2": "Out", "latitude": -37.80771581, "longitude": 144.9586238, "location": {"lon": 144.9586238, "lat": -37.80771581}},{"location_id": 153, "sensor_description": "narrm ngarrgu Library - Level 2 - Study Area Lifts 2", "sensor_name": "narrLibL2S2_T", "installation_date": "2023-10-23", "note": null, "location_type": "Indoor", "status": "A", "direction_1": null, "direction_2": null, "latitude": -37.80780367, "longitude": 144.95829765, "location": {"lon": 144.95829765, "lat": -37.80780367}},{"location_id": 156, "sensor_description": "COM Pole 2359 - NAB Building", "sensor_name": "BouHbr2359_T", "installation_date": null, "note": null, "location_type": "Outdoor", "status": "A", "direction_1": null, "direction_2": null, "latitude": -37.81821294, "longitude": 144.94577313, "location": {"lon": 144.94577313, "lat": -37.81821294}},{"location_id": 159, "sensor_description": "516 Elizeberth Street", "sensor_name": "Eli516_T", "installation_date": "2024-01-29", "note": null, "location_type": "Indoor", "status": "A", "direction_1": null, "direction_2": null, "latitude": -37.80651646, "longitude": 144.96007934, "location": {"lon": 144.96007934, "lat": -37.80651646}},{"location_id": 24, "sensor_description": "Spencer St-Collins St (North)", "sensor_name": "Col620_T", "installation_date": "2013-09-02", "note": null, "location_type": "Outdoor", "status": "A", "direction_1": "East", "direction_2": "West", "latitude": -37.81887963, "longitude": 144.95449198, "location": {"lon": 144.95449198, "lat": -37.81887963}},{"location_id": 25, "sensor_description": "Melbourne Convention Exhibition Centre", "sensor_name": "MCEC_T", "installation_date": "2013-08-28", "note": null, "location_type": "Outdoor", "status": "A", "direction_1": "East", "direction_2": "West", "latitude": -37.82401776, "longitude": 144.95604426, "location": {"lon": 144.95604426, "lat": -37.82401776}},{"location_id": 36, "sensor_description": "Queen St (West)", "sensor_name": "Que85_T", "installation_date": "2015-01-20", "note": "Pushbox Upgrade, 03/08/2023", "location_type": "Outdoor", "status": "A", "direction_1": "North", "direction_2": "South", "latitude": -37.81652527, "longitude": 144.96121062, "location": {"lon": 144.96121062, "lat": -37.81652527}},{"location_id": 37, "sensor_description": "Lygon St (East)", "sensor_name": "Lyg260_T", "installation_date": "2015-02-11", "note": "Pushbox Upgrade, 30/06/2023", "location_type": "Outdoor", "status": "A", "direction_1": "North", "direction_2": "South", "latitude": -37.80310271, "longitude": 144.96671451, "location": {"lon": 144.96671451, "lat": -37.80310271}},{"location_id": 41, "sensor_description": "Flinders La-Swanston St (West)", "sensor_name": "Swa31", "installation_date": "2017-06-29", "note": null, "location_type": "Outdoor", "status": "A", "direction_1": "North", "direction_2": "South", "latitude": -37.81668634, "longitude": 144.96689733, "location": {"lon": 144.96689733, "lat": -37.81668634}},{"location_id": 45, "sensor_description": "Little Collins St-Swanston St (East)", "sensor_name": "Swa148_T", "installation_date": "2017-06-29", "note": "Pushbox Upgrade, 03/08/2023", "location_type": "Outdoor", "status": "A", "direction_1": "North", "direction_2": "South", "latitude": -37.81414075, "longitude": 144.96609379, "location": {"lon": 144.96609379, "lat": -37.81414075}},{"location_id": 46, "sensor_description": "Pelham St (South)", "sensor_name": "Pel147_T", "installation_date": "2017-07-10", "note": null, "location_type": "Outdoor", "status": "A", "direction_1": "East", "direction_2": "West", "latitude": -37.80240719, "longitude": 144.9615673, "location": {"lon": 144.9615673, "lat": -37.80240719}},{"location_id": 49, "sensor_description": "QVM-Therry St (South)", "sensor_name": "Eli501_T", "installation_date": "2017-11-29", "note": "Pushbox Upgrade, 20/07/2023", "location_type": "Outdoor", "status": "A", "direction_1": "East", "direction_2": "West", "latitude": -37.80730068, "longitude": 144.95956055, "location": {"lon": 144.95956055, "lat": -37.80730068}},{"location_id": 50, "sensor_description": "Faraday St-Lygon St (West)", "sensor_name": "Lyg309_T", "installation_date": "2017-11-30", "note": "Pushbox Upgrade, 25/07/2023", "location_type": "Outdoor", "status": "A", "direction_1": "North", "direction_2": "South", "latitude": -37.79808192, "longitude": 144.96721013, "location": {"lon": 144.96721013, "lat": -37.79808192}},{"location_id": 52, "sensor_description": "Elizabeth St-Lonsdale St (South)", "sensor_name": "Eli263_T", "installation_date": "2017-07-31", "note": "Pushbox Upgrade, 25/07/2023", "location_type": "Outdoor", "status": "A", "direction_1": "East", "direction_2": "West", "latitude": -37.81252157, "longitude": 144.9619401, "location": {"lon": 144.9619401, "lat": -37.81252157}},{"location_id": 56, "sensor_description": "Lonsdale St - Elizabeth St (North)", "sensor_name": "Lon364_T", "installation_date": "2018-07-25", "note": null, "location_type": "Outdoor", "status": "A", "direction_1": "East", "direction_2": "West", "latitude": -37.81234775, "longitude": 144.96153311, "location": {"lon": 144.96153311, "lat": -37.81234775}},{"location_id": 65, "sensor_description": "Swanston St - City Square", "sensor_name": "SwaCs_T", "installation_date": "2020-03-12", "note": null, "location_type": "Outdoor", "status": "A", "direction_1": "North", "direction_2": "South", "latitude": -37.81569416, "longitude": 144.9668064, "location": {"lon": 144.9668064, "lat": -37.81569416}},{"location_id": 66, "sensor_description": "State Library - New", "sensor_name": "QVN_T", "installation_date": "2020-04-06", "note": null, "location_type": "Outdoor", "status": "A", "direction_1": "North", "direction_2": "South", "latitude": -37.81057846, "longitude": 144.96444294, "location": {"lon": 144.96444294, "lat": -37.81057846}},{"location_id": 67, "sensor_description": "Flinders Ln -Degraves St (South)", "sensor_name": "FLDegS_T", "installation_date": "2020-06-03", "note": null, "location_type": "Outdoor", "status": "A", "direction_1": "East", "direction_2": "West", "latitude": -37.81688755, "longitude": 144.96562569, "location": {"lon": 144.96562569, "lat": -37.81688755}},{"location_id": 68, "sensor_description": "Flinders Ln -Degraves St (North)", "sensor_name": "FLDegN_T", "installation_date": "2020-06-03", "note": null, "location_type": "Outdoor", "status": "A", "direction_1": "East", "direction_2": "West", "latitude": -37.8168479, "longitude": 144.96559789, "location": {"lon": 144.96559789, "lat": -37.8168479}},{"location_id": 70, "sensor_description": "Errol Street (East)", "sensor_name": "Errol20_T", "installation_date": "2020-10-12", "note": null, "location_type": "Outdoor", "status": "A", "direction_1": "North", "direction_2": "South", "latitude": -37.80456984, "longitude": 144.94946228, "location": {"lon": 144.94946228, "lat": -37.80456984}},{"location_id": 75, "sensor_description": "Spring St- Flinders st (West)", "sensor_name": "SprFli_T", "installation_date": "2020-12-18", "note": null, "location_type": "Outdoor", "status": "A", "direction_1": "North", "direction_2": "South", "latitude": -37.81515276, "longitude": 144.97467661, "location": {"lon": 144.97467661, "lat": -37.81515276}},{"location_id": 77, "sensor_description": "Harbour Esplanade (West) - Pedestrian path", "sensor_name": "HarEsP_T", "installation_date": "2021-03-25", "note": null, "location_type": "Outdoor", "status": "A", "direction_1": "North", "direction_2": "South", "latitude": -37.81441438, "longitude": 144.94433026, "location": {"lon": 144.94433026, "lat": -37.81441438}},{"location_id": 82, "sensor_description": "512 Elizabeth Street", "sensor_name": "Eli512_T", "installation_date": "2021-11-05", "note": null, "location_type": "Indoor", "status": "A", "direction_1": null, "direction_2": null, "latitude": -37.80667227, "longitude": 144.96005554, "location": {"lon": 144.96005554, "lat": -37.80667227}},{"location_id": 83, "sensor_description": "510 Elizabeth Street", "sensor_name": "Eli510_T", "installation_date": "2021-11-05", "note": null, "location_type": "Indoor", "status": "A", "direction_1": null, "direction_2": null, "latitude": -37.8067319, "longitude": 144.96005113, "location": {"lon": 144.96005113, "lat": -37.8067319}},{"location_id": 91, "sensor_description": "Library at The Dock-North side", "sensor_name": "DocLib1_T", "installation_date": "2015-06-05", "note": null, "location_type": "Indoor", "status": "A", "direction_1": null, "direction_2": null, "latitude": -37.8200188, "longitude": 144.94029861, "location": {"lon": 144.94029861, "lat": -37.8200188}},{"location_id": 93, "sensor_description": "East Melbourne Library", "sensor_name": "EastLib_T", "installation_date": "2013-02-02", "note": null, "location_type": "Indoor", "status": "A", "direction_1": null, "direction_2": null, "latitude": -37.81498411, "longitude": 144.98638807, "location": {"lon": 144.98638807, "lat": -37.81498411}},{"location_id": 95, "sensor_description": "Fitzroy Garden Visitor Centre External", "sensor_name": "FitGarExtVisExt_T", "installation_date": "2015-03-02", "note": "Pushbox Upgrade, 30/06/2023", "location_type": "Indoor", "status": "A", "direction_1": null, "direction_2": null, "latitude": -37.81488315, "longitude": 144.97926569, "location": {"lon": 144.97926569, "lat": -37.81488315}},{"location_id": 99, "sensor_description": "Town Hall Visitor Centre", "sensor_name": "TownVis_T", "installation_date": "2020-02-02", "note": "Pushbox Upgrade, 03/08/2023", "location_type": "Indoor", "status": "A", "direction_1": null, "direction_2": null, "latitude": -37.81462143, "longitude": 144.96623279, "location": {"lon": 144.96623279, "lat": -37.81462143}},{"location_id": 102, "sensor_description": "North Melbourne Library", "sensor_name": "NtMelLib_T", "installation_date": "2018-02-02", "note": null, "location_type": "Indoor", "status": "A", "direction_1": null, "direction_2": null, "latitude": -37.80340543, "longitude": 144.94977011, "location": {"lon": 144.94977011, "lat": -37.80340543}},{"location_id": 106, "sensor_description": "Kathleen Syme Library Cafe", "sensor_name": "KatLib3_T", "installation_date": "2018-02-02", "note": null, "location_type": "Indoor", "status": "A", "direction_1": null, "direction_2": null, "latitude": -37.79859459, "longitude": 144.96510921, "location": {"lon": 144.96510921, "lat": -37.79859459}},{"location_id": 107, "sensor_description": "Flagstaff station (East)", "sensor_name": "280Will_T", "installation_date": "2022-10-08", "note": null, "location_type": "Outdoor", "status": "A", "direction_1": "North", "direction_2": "South", "latitude": -37.81246271, "longitude": 144.95690188, "location": {"lon": 144.95690188, "lat": -37.81246271}},{"location_id": 109, "sensor_description": "La Trobe St- William St (South)", "sensor_name": "LatWill_T", "installation_date": "2022-10-08", "note": null, "location_type": "Outdoor", "status": "A", "direction_1": "East", "direction_2": "West", "latitude": -37.81193681, "longitude": 144.95621105, "location": {"lon": 144.95621105, "lat": -37.81193681}},{"location_id": 110, "sensor_description": "Birrarung Marr East Entry", "sensor_name": "BirBlix_T", "installation_date": "2021-12-07", "note": null, "location_type": "Outdoor Blix", "status": "A", "direction_1": null, "direction_2": null, "latitude": -37.82102867, "longitude": 144.97590204, "location": {"lon": 144.97590204, "lat": -37.82102867}},{"location_id": 120, "sensor_description": "Harbour Esplanade", "sensor_name": "HarbBlix_T", "installation_date": "2021-03-25", "note": null, "location_type": "Outdoor Blix", "status": "A", "direction_1": null, "direction_2": null, "latitude": -37.81442577, "longitude": 144.94436558, "location": {"lon": 144.94436558, "lat": -37.81442577}},{"location_id": 132, "sensor_description": "I-Hub Corner of King Street and Latrobe Street (317-335 King)", "sensor_name": "King335_T", "installation_date": "2023-09-25", "note": null, "location_type": "Outdoor", "status": "A", "direction_1": "North", "direction_2": "South", "latitude": -37.81267639, "longitude": 144.95386444, "location": {"lon": 144.95386444, "lat": -37.81267639}},{"location_id": 134, "sensor_description": "I-Hub Southern Cross Station - Bourke Street Entrance - North", "sensor_name": "Spen201_T", "installation_date": "2023-09-25", "note": null, "location_type": "Outdoor", "status": "A", "direction_1": "North", "direction_2": "South", "latitude": -37.81694221, "longitude": 144.95303935, "location": {"lon": 144.95303935, "lat": -37.81694221}},{"location_id": 138, "sensor_description": "COM Pole 1671 - Enterprize Park, Queens Bridge", "sensor_name": "EntPark1671_T", "installation_date": "2023-11-20", "note": null, "location_type": "Outdoor", "status": "A", "direction_1": null, "direction_2": null, "latitude": -37.81996544, "longitude": 144.95981454, "location": {"lon": 144.95981454, "lat": -37.81996544}},{"location_id": 140, "sensor_description": "COM Pole 2837 - Boyd Park", "sensor_name": "Boyd2837_T", "installation_date": "2023-11-02", "note": null, "location_type": "Outdoor", "status": "A", "direction_1": "North", "direction_2": "South", "latitude": -37.82590962, "longitude": 144.96185972, "location": {"lon": 144.96185972, "lat": -37.82590962}},{"location_id": 150, "sensor_description": "narrm ngarrgu Library - Level 1 Main Stairs B", "sensor_name": "narrLibL1MB_T", "installation_date": "2023-10-23", "note": null, "location_type": "Indoor", "status": "A", "direction_1": null, "direction_2": null, "latitude": -37.80791198, "longitude": 144.95820087, "location": {"lon": 144.95820087, "lat": -37.80791198}},{"location_id": 152, "sensor_description": "narrm ngarrgu Library - Level 2 - Study Area Lifts 1", "sensor_name": "narrLibL2S1_T", "installation_date": "2023-10-23", "note": null, "location_type": "Indoor", "status": "A", "direction_1": null, "direction_2": null, "latitude": -37.80776728, "longitude": 144.95843977, "location": {"lon": 144.95843977, "lat": -37.80776728}},{"location_id": 154, "sensor_description": "narrm ngarrgu Library - Level 3 Children's Library Door 1", "sensor_name": "narrLibL3C1_T", "installation_date": "2023-10-23", "note": null, "location_type": "Indoor", "status": "A", "direction_1": "In", "direction_2": "Out", "latitude": -37.80778437, "longitude": 144.95862772, "location": {"lon": 144.95862772, "lat": -37.80778437}},{"location_id": 158, "sensor_description": "514 Elizebeth Street", "sensor_name": "Eli514_T", "installation_date": "2024-01-29", "note": null, "location_type": "Indoor", "status": "A", "direction_1": null, "direction_2": null, "latitude": -37.80657467, "longitude": 144.96007044, "location": {"lon": 144.96007044, "lat": -37.80657467}}]